[
    {
        "title": "Remote",
        "label": "Atlanta Technical College",
        "lat": 33.71177331490831,
        "lng": -84.40779501220935
    },
    {
        "title": "Hybrid",
        "label": "Albany Technical College",
        "lat": 31.554780783279696,
        "lng": -84.17438996588969
    },
    {
        "title": "Onsite",
        "label": "Augusta Technical College",
        "lat": 33.7899124969126,
        "lng": -84.234454883044
    },
    {
        "title": "Remote",
        "label": "Georgia Piedmont Technical College",
        "lat": 33.96279998295945,
        "lng": -84.06757085275673
    },
    {
        "title": "Hybrid",
        "label": "Athens Technical College",
        "lat": 33.991500763148295,
        "lng": -83.33919072812836
    },
    {
        "title": "Onsite",
        "label": "Gwinnett Technical College",
        "lat": 33.78263461080614,
        "lng": -84.32406561048924
    },
    {
        "title": "Remote",
        "label": "Columbus Technical College",
        "lat": 32.50810616960871,
        "lng": -84.97849567117237
    },
    {
        "title": "Hybrid",
        "label": "Atlanta Metropolitan State College",
        "lat": 33.709674311461725,
        "lng": -84.40456944151022
    },
    {
        "title": "Onsite",
        "label": "Georgia Military College",
        "lat": 33.07893954310344,
        "lng": -83.22344377316962
    },
    {
        "title": "Remote",
        "label": "Chattahoochee Technical College",
        "lat": 33.929168567035575,
        "lng": -84.55332197870818
    },
    {
        "title": "Hybrid",
        "label": "Kennesaw State University",
        "lat": 34.03818571498682,
        "lng": -84.58266975157382
    },
    {
        "title": "Onsite",
        "label": "University of Georgia",
        "lat": 33.94800606331418,
        "lng": -83.37732717768762
    },
    {
        "title": "Remote",
        "label": "Georgia Institute of Technology",
        "lat": 33.77562943876282,
        "lng": -84.39628550167927
    },
    {
        "title": "Hybrid",
        "label": "Georgia State University",
        "lat": 33.753079118265646,
        "lng": -84.38528190082044
    },
    {
        "title": "Onsite",
        "label": "Georgia College",
        "lat": 33.0804462206821,
        "lng": -83.23193516526752
    },
    {
        "title": "Remote",
        "label": "Emory University",
        "lat": 33.79713453881812,
        "lng": -84.32224268305148
    },
    {
        "title": "Hybrid",
        "label": "Albany State University",
        "lat": 32.42055622692872,
        "lng": -81.78653738305033
    },
    {
        "title": "Onsite",
        "label": "University of North Georgia",
        "lat": 34.52786176744483,
        "lng": -83.98444428303956
    },
    {
        "title": "Remote",
        "label": "Columbus State University",
        "lat": 32.50202703735372,
        "lng": -84.94016754195609
    },
    {
        "title": "Hybrid",
        "label": "Augusta University",
        "lat": 33.470914402087956,
        "lng": -81.9898848008337
    },
    {
        "title": "Onsite",
        "label": "Clark Atlanta University",
        "lat": 33.751569112990765,
        "lng": -84.41123217138536
    },
    {
        "title": "Remote",
        "label": "Georgia Southwestern State University",
        "lat": 32.05603719089806,
        "lng": -84.21751034398264
    },
    {
        "title": "Hybrid",
        "label": "East Georgia State College",
        "lat": 32.59536696835398,
        "lng": -82.30701034195552
    },
    {
        "title": "Onsite",
        "label": "Shorter University",
        "lat": 34.25922830124847,
        "lng": -85.19597128303532
    },
    {
        "title": "Remote",
        "label": "GRACEPOINT",
        "lat": 34.01763616607343,
        "lng": -84.53402885202107
    },
    {
        "title": "Hybrid",
        "label": "Gwinnett School of STEM",
        "lat": 33.953028689350816,
        "lng": -84.06018026831968
    },
    {
        "title": "Onsite",
        "label": "North Oconee High School",
        "lat": 33.87725994346352,
        "lng": -83.5234406540099
    },
    {
        "title": "Remote",
        "label": "Alliance Academy of Cumming",
        "lat": 34.21869058176982,
        "lng": -84.11591660903706
    },
    {
        "title": "Hybrid",
        "label": "Northview High School",
        "lat": 34.039115629444325,
        "lng": -84.17774218900878
    },
    {
        "title": "Onsite",
        "label": "Jefferson High School",
        "lat": 34.12222664727131,
        "lng": -83.58188963345904
    },
    {
        "title": "Remote",
        "label": "Jefferson Elementary School",
        "lat": 34.123404908981364,
        "lng": -83.58543819432367
    },
    {
        "title": "Hybrid",
        "label": "Walton High School",
        "lat": 33.989273724740094,
        "lng": -84.44046804256497
    },
    {
        "title": "Remote",
        "label": "Elite Scholars Academy School",
        "lat": 33.539739348095715,
        "lng": -84.32572568943196
    },
    {
        "title": "Hybrid",
        "label": "Riverwatch Middle School",
        "lat": 34.124189923129805,
        "lng": -84.10954703755664
    },
    {
        "title": "Onsite",
        "label": "Dodgen Middle School",
        "lat": 33.9911737604075,
        "lng": -84.44495030395345
    },
    {
        "title": "Remote",
        "label": "Dickerson Middle School",
        "lat": 33.96928253116162,
        "lng": -84.41710142874346
    },
    {
        "title": "Hybrid",
        "label": "Rising Starr Middle School",
        "lat": 33.34210365867751,
        "lng": -84.51957618996288
    },
    {
        "title": "Onsite",
        "label": "Mabry Middle School",
        "lat": 34.059969286501385,
        "lng": -84.47033664099388
    },
    {
        "title": "Remote",
        "label": "River Trail Middle School",
        "lat": 34.04316403614753,
        "lng": -84.12489865298745
    },
    {
        "title": "Hybrid",
        "label": "South Forsyth Middle School",
        "lat": 34.11609205486133,
        "lng": -84.15308598848578
    },
    {
        "title": "Onsite",
        "label": "North Gwinnett Middle School",
        "lat": 34.07909800630962,
        "lng": -84.06122863047952
    },
    {
        "title": "Remote",
        "label": "Bremen Middle School",
        "lat": 33.71281063220967,
        "lng": -85.11790058781544
    },
    {
        "title": "Hybrid",
        "label": "Kittredge Magnet School",
        "lat": 33.826737186582726,
        "lng": -84.32788756417169
    },
    {
        "title": "Onsite",
        "label": "Daves Creek Elementary School",
        "lat": 34.13604122438488,
        "lng": -84.14260631380864
    },
    {
        "title": "Remote",
        "label": "Big Creek Elementary School",
        "lat": 34.11284607542049,
        "lng": -84.17757867982638
    },
    {
        "title": "Hybrid",
        "label": "Johns Creek Elementary",
        "lat": 34.06443880983196,
        "lng": -84.12713165309809
    },
    {
        "title": "Onsite",
        "label": "Sharon Elementary School",
        "lat": 34.103603457184704,
        "lng": -84.13629833710085
    },
    {
        "title": "Hybrid",
        "label": "Lanier Technical College",
        "lat": 34.14884991998746,
        "lng": -84.1850702640567
    },
    {
        "title": "Onsite",
        "label": "University of Georgia",
        "lat": 33.94800606331418,
        "lng": -83.37732717768762
    },
    {
        "title": "Remote",
        "label": "Georgia Highlands College",
        "lat": 34.169762809551614,
        "lng": -85.20744880772585
    },
    {
        "title": "Hybrid",
        "label": "Southeastern Technical College",
        "lat": 32.203791266771745,
        "lng": -82.3659565785104
    },
    {
        "title": "Onsite",
        "label": "Savannah Technical College",
        "lat": 32.02357639549461,
        "lng": -81.11418445111303
    },
    {
        "title": "Remote",
        "label": "Georgia NW Technical College",
        "lat": 34.80891631887993,
        "lng": -85.24607442015797
    },
    {
        "title": "Hybrid",
        "label": "Andrew College",
        "lat": 32.42055622692872,
        "lng": -81.78653738305033
    },
    {
        "title": "Onsite",
        "label": "South Georgia Technical College",
        "lat": 32.117879004508666,
        "lng": -84.18856517513466
    },
    {
        "title": "Remote",
        "label": "North Georgia Technical College",
        "lat": 34.63891880653135,
        "lng": -83.52917665953638
    },
    {
        "title": "Hybrid",
        "label": "Fortis College",
        "lat": 33.90030545568694,
        "lng": -84.54275478305189
    },
    {
        "title": "Onsite",
        "label": "Wiregrass Georgia Technical College",
        "lat": 30.88964983953141,
        "lng": -83.35447529313798
    },
    {
        "title": "Remote",
        "label": "Central Georgia Technical College",
        "lat": 32.54518887778059,
        "lng": -83.66747148274297
    },
    {
        "title": "Hybrid",
        "label": "Gordon State College",
        "lat": 33.04737625937543,
        "lng": -84.1516644052567
    },
    {
        "title": "Onsite",
        "label": "College of Coastal Georgia",
        "lat": 31.183265442775024,
        "lng": -81.48677650699494
    },
    {
        "title": "Hybrid",
        "label": "Kimi Farms",
        "lat": 32.538921040705674,
        "lng": -84.95880717032333
    },
    {
        "title": "Hybrid",
        "label": "Double Durango Farm",
        "lat": 32.449047399645565,
        "lng": -84.9797575978739
    },
    {
        "title": "Hybrid",
        "label": "Dixon Farms",
        "lat": 32.516951312743224,
        "lng": -85.19904246765286
    },
    {
        "title": "Hybrid",
        "label": "Bromatoes Urban Farm",
        "lat": 32.46961876902247,
        "lng": -84.97597222806935
    },
    {
        "title": "Hybrid",
        "label": "Simply Dutch Farm",
        "lat": 32.640442168450335,
        "lng": -84.7400855409999
    },
    {
        "title": "Hybrid",
        "label": "Tillman Family Farms",
        "lat": 32.63485789686243,
        "lng": -85.03044367098705
    },
    {
        "title": "Hybrid",
        "label": "Jenny Jack Farm",
        "lat": 32.852865766252854,
        "lng": -84.96529461380038
    },
    {
        "title": "Hybrid",
        "label": "Knights of Columbus Christmas tree",
        "lat": 32.46989827165934,
        "lng": -84.98798954100549
    },
    {
        "title": "Remote",
        "label": "Phillips Family Farm",
        "lat": 32.450915576361474,
        "lng": -85.03492889919754
    },
    {
        "title": "Remote",
        "label": "Laney Farms",
        "lat": 32.446277177674055,
        "lng": -85.17841381257882
    },
    {
        "title": "Remote",
        "label": "Cody Farms",
        "lat": 32.86671783114227,
        "lng": -85.0226140987419
    },
    {
        "title": "Remote",
        "label": "My Dad & Me Family Farm",
        "lat": 33.90724818251413,
        "lng": -84.65654864118534
    },
    {
        "title": "Remote",
        "label": "Mulberry Farms Pool",
        "lat": 33.951297256025484,
        "lng": -84.41000363816345
    },
    {
        "title": "Remote",
        "label": "Patchwork City Farms LLC.",
        "lat": 33.73058749799154,
        "lng": -84.43096862758284
    },
    {
        "title": "Remote",
        "label": "Pinoak Farms Inc",
        "lat": 33.95161115876705,
        "lng": -84.49056099824259
    },
    {
        "title": "Remote",
        "label": "Martin's Garden at Coleman Farms",
        "lat": 34.01982585376796,
        "lng": -84.37372359984852
    },
    {
        "title": "Onsite",
        "label": "Still Family Farm, LLC",
        "lat": 33.90412008881178,
        "lng": -84.71877394095412
    },
    {
        "title": "Onsite",
        "label": "MS FARM LIMITED",
        "lat": 33.84875210303654,
        "lng": -84.36641139916215
    },
    {
        "title": "Onsite",
        "label": "Berry Patch Farms",
        "lat": 34.10932262647623,
        "lng": -84.42375389823505
    },
    {
        "title": "Onsite",
        "label": "Big Springs Farms",
        "lat": 34.15190777588534,
        "lng": -84.38601779915585
    },
    {
        "title": "Onsite",
        "label": "Triple B & S Farms",
        "lat": 33.93559766184062,
        "lng": -84.36204138667804
    },
    {
        "title": "Onsite",
        "label": "Maxham Farms",
        "lat": 33.9054555512373,
        "lng": -84.42781004913182
    },
    {
        "title": "Onsite",
        "label": "Ashley Family Farm LLC",
        "lat": 33.955885566486856,
        "lng": -84.28750465760801
    },
    {
        "title": "Onsite",
        "label": "Gee Farm",
        "lat": 33.899398622887745,
        "lng": -84.60661716844461
    },
    {
        "title": "Remote",
        "label": "Sabor Do Brasil",
        "lat": 33.74069565273184,
        "lng": -84.25374265987409
    },
    {
        "title": "Remote",
        "label": "Rio SteakHouse",
        "lat": 33.7964094432192,
        "lng": -84.21792716713198
    },
    {
        "title": "Remote",
        "label": "Willy's Mexicana Grill",
        "lat": 33.80214852546382,
        "lng": -84.44848374973128
    },
    {
        "title": "Remote",
        "label": "Brazilian Bakery Cafe",
        "lat": 33.869948494378455,
        "lng": -84.36085086167233
    },
    {
        "title": "Remote",
        "label": "Waffle House",
        "lat": 33.819821663814615,
        "lng": -84.33759929891055
    },
    {
        "title": "Remote",
        "label": "Wings & Things",
        "lat": 33.677532948253734,
        "lng": -83.84051685788873
    },
    {
        "title": "Remote",
        "label": "Delkwood Gril",
        "lat": 33.96376533062386,
        "lng": -84.55747457325194
    },
    {
        "title": "Remote",
        "label": "J. Christopher's",
        "lat": 34.03821266637765,
        "lng": -85.15259485315124
    },
    {
        "title": "Remote",
        "label": "Zaxby's",
        "lat": 33.736142212009405,
        "lng": -84.63879409878676
    },
    {
        "title": "Hybrid",
        "label": "Pappadeaux Seafood Kitchen",
        "lat": 33.71496542264831,
        "lng": -84.61407671464421
    },
    {
        "title": "Hybrid",
        "label": "Minas Grill",
        "lat": 33.95326857911678,
        "lng": -84.53236120563784
    },
    {
        "title": "Hybrid",
        "label": "Hibachi STOP",
        "lat": 33.813452139158564,
        "lng": -84.49264233366915
    },
    {
        "title": "Hybrid",
        "label": "Blue Moon Pizza",
        "lat": 33.85218483537021,
        "lng": -84.37255846708354
    },
    {
        "title": "Hybrid",
        "label": "Marietta Diner",
        "lat": 33.656685978403864,
        "lng": -84.40393854411482
    },
    {
        "title": "Hybrid",
        "label": "Bonefish Grill",
        "lat": 33.748824879836484,
        "lng": -84.56901369726613
    },
    {
        "title": "Hybrid",
        "label": "Battle And Brew",
        "lat": 33.37622145739476,
        "lng": -84.05195612850213
    },
    {
        "title": "Hybrid",
        "label": "Fugu Express",
        "lat": 33.97959219723126,
        "lng": -84.20861750402844
    },
    {
        "title": "Hybrid",
        "label": "Pappasito's Cantina",
        "lat": 34.069794508223474,
        "lng": -84.08531244272295
    },
    {
        "title": "Onsite",
        "label": "Cracker Barrel",
        "lat": 33.807134798436046,
        "lng": -84.53685429678191
    },
    {
        "title": "Onsite",
        "label": "Ray's on the River",
        "lat": 33.699349092747354,
        "lng": -84.51904295921601
    },
    {
        "title": "Onsite",
        "label": "Yard House",
        "lat": 33.78263461080614,
        "lng": -84.32406561048924
    },
    {
        "title": "Onsite",
        "label": "The Bowl",
        "lat": 33.824781297347705,
        "lng": -84.47180882021888
    },
    {
        "title": "Onsite",
        "label": "Chic-fil-a",
        "lat": 33.766382424534186,
        "lng": -84.26966828189197
    },
    {
        "title": "Onsite",
        "label": "Canoe",
        "lat": 33.97984282714402,
        "lng": -84.35285244024826
    },
    {
        "title": "Onsite",
        "label": "Hikaru Ramen",
        "lat": 33.27233909278364,
        "lng": -83.05405307848439
    },
    {
        "title": "Onsite",
        "label": "Falafel Cafe",
        "lat": 33.93390740659755,
        "lng": -84.96072176794321
    },
    {
        "title": "Onsite",
        "label": "Soul Food Train",
        "lat": 34.069794508223474,
        "lng": -84.08531244272295
    },
    {
        "title": "Remote",
        "label": "Fort Gordon",
        "lat": 33.43015764745154,
        "lng": -82.12614060028285
    },
    {
        "title": "Remote",
        "label": "Robins AFB",
        "lat": 32.6400038962996,
        "lng": -83.59171777278375
    },
    {
        "title": "Remote",
        "label": "Dobbins Air Reserve Base",
        "lat": 33.91886550033301,
        "lng": -84.50464657388633
    },
    {
        "title": "Remote",
        "label": "Fort Benning",
        "lat": 32.39127720036821,
        "lng": -84.82290750481575
    },
    {
        "title": "Remote",
        "label": "Clay National Guard Center",
        "lat": 33.91386748009685,
        "lng": -84.52846994560971
    },
    {
        "title": "Remote",
        "label": "Georgia State Defense Force Headquarters",
        "lat": 33.91372464772484,
        "lng": -84.53319138306901
    },
    {
        "title": "Remote",
        "label": "US Defense Contract Audit Agency",
        "lat": 33.897093725680335,
        "lng": -84.4835195830216
    },
    {
        "title": "Remote",
        "label": "US Army-Fort Stewart",
        "lat": 31.871106515436196,
        "lng": -81.62135879827156
    },
    {
        "title": "Hybrid",
        "label": "Hunter Army Airfield",
        "lat": 32.01124454726715,
        "lng": -81.14701784388058
    },
    {
        "title": "Hybrid",
        "label": "Fort Gillem",
        "lat": 33.62024030202808,
        "lng": -84.32889630263172
    },
    {
        "title": "Hybrid",
        "label": "Fort McPherson",
        "lat": 33.707746967924834,
        "lng": -84.43411780904164
    },
    {
        "title": "Hybrid",
        "label": "Office of the Adjutant General",
        "lat": 33.913250528783784,
        "lng": -84.53305740565226
    },
    {
        "title": "Hybrid",
        "label": "Joint Operations",
        "lat": 33.918883257825776,
        "lng": -84.50476636778612
    },
    {
        "title": "Hybrid",
        "label": "United States Department-The Air Frc",
        "lat": 33.899331997530716,
        "lng": -84.47470616825969
    },
    {
        "title": "Hybrid",
        "label": "Georgia State Defense Force OPFOR Battalion",
        "lat": 33.91307545656481,
        "lng": -84.53327506149068
    },
    {
        "title": "Hybrid",
        "label": "Georgia Air National Guard",
        "lat": 33.89559507925169,
        "lng": -84.59034134330939
    },
    {
        "title": "Onsite",
        "label": "A Company, 1-121 Infantry, Georgia Army National Guard",
        "lat": 33.959972212066184,
        "lng": -83.9723629544459
    },
    {
        "title": "Onsite",
        "label": "Camp Frank D. Merrill",
        "lat": 34.62748094436676,
        "lng": -84.10422575950473
    },
    {
        "title": "Onsite",
        "label": "US Army Camp Merril",
        "lat": 34.6272723738778,
        "lng": -84.10480511559008
    },
    {
        "title": "Onsite",
        "label": "NOSC Atlanta",
        "lat": 33.92786196241555,
        "lng": -84.51910585740514
    },
    {
        "title": "Onsite",
        "label": "Moody Air Force Base",
        "lat": 30.968625684561587,
        "lng": -83.19306350145581
    },
    {
        "title": "Onsite",
        "label": "Marine Corps Logistics Base Albany",
        "lat": 31.550770772028777,
        "lng": -84.0638436097047
    },
    
    {
        "title": "East Point: Technology",
        "label": "East Point",
        "icon": "../images/markers/yellow_MarkerT.png",
        "lat": 33.67978700657323,
        "lng": -84.43959133878374
    },
    {
        "title": "College Park: Technology",
        "label": "College Park",
        "icon": "../images/markers/yellow_MarkerT.png",
        "lat": 33.634970326289334,
        "lng": -84.46822017581849
    },
    {
        "title": "Decatur: Technology",
        "label": "Decatur",
        "icon": "../images/markers/yellow_MarkerT.png",
        "lat": 33.77172651658744,
        "lng": -84.29787817802064
    },
    {
        "title": "Curiosity Lab at Peachtree Corners",
        "label": "Curiosity Lab at Peachtree Corners",
        "icon": "../images/markers/yellow_MarkerT.png",
        "lat": 33.963082523213664,
        "lng": -84.22071888785031
    }
]