[
    {
        "title": "Hybrid",
        "label": "Kimi Farms",
        "lat": 32.538921040705674,
        "lng": -84.95880717032333
    },
    {
        "title": "Hybrid",
        "label": "Double Durango Farm",
        "lat": 32.449047399645565,
        "lng": -84.9797575978739
    },
    {
        "title": "Hybrid",
        "label": "Dixon Farms",
        "lat": 32.516951312743224,
        "lng": -85.19904246765286
    },
    {
        "title": "Hybrid",
        "label": "Bromatoes Urban Farm",
        "lat": 32.46961876902247,
        "lng": -84.97597222806935
    },
    {
        "title": "Hybrid",
        "label": "Simply Dutch Farm",
        "lat": 32.640442168450335,
        "lng": -84.7400855409999
    },
    {
        "title": "Hybrid",
        "label": "Tillman Family Farms",
        "lat": 32.63485789686243,
        "lng": -85.03044367098705
    },
    {
        "title": "Hybrid",
        "label": "Jenny Jack Farm",
        "lat": 32.852865766252854,
        "lng": -84.96529461380038
    },
    {
        "title": "Hybrid",
        "label": "Knights of Columbus Christmas tree",
        "lat": 32.46989827165934,
        "lng": -84.98798954100549
    },
    {
        "title": "Remote",
        "label": "Phillips Family Farm",
        "lat": 32.450915576361474,
        "lng": -85.03492889919754
    },
    {
        "title": "Remote",
        "label": "Laney Farms",
        "lat": 32.446277177674055,
        "lng": -85.17841381257882
    },
    {
        "title": "Remote",
        "label": "Cody Farms",
        "lat": 32.86671783114227,
        "lng": -85.0226140987419
    },
    {
        "title": "Remote",
        "label": "My Dad & Me Family Farm",
        "lat": 33.90724818251413,
        "lng": -84.65654864118534
    },
    {
        "title": "Remote",
        "label": "Mulberry Farms Pool",
        "lat": 33.951297256025484,
        "lng": -84.41000363816345
    },
    {
        "title": "Remote",
        "label": "Patchwork City Farms LLC.",
        "lat": 33.73058749799154,
        "lng": -84.43096862758284
    },
    {
        "title": "Remote",
        "label": "Pinoak Farms Inc",
        "lat": 33.95161115876705,
        "lng": -84.49056099824259
    },
    {
        "title": "Remote",
        "label": "Martin's Garden at Coleman Farms",
        "lat": 34.01982585376796,
        "lng": -84.37372359984852
    },
    {
        "title": "Onsite",
        "label": "Still Family Farm, LLC",
        "lat": 33.90412008881178,
        "lng": -84.71877394095412
    },
    {
        "title": "Onsite",
        "label": "MS FARM LIMITED",
        "lat": 33.84875210303654,
        "lng": -84.36641139916215
    },
    {
        "title": "Onsite",
        "label": "Berry Patch Farms",
        "lat": 34.10932262647623,
        "lng": -84.42375389823505
    },
    {
        "title": "Onsite",
        "label": "Big Springs Farms",
        "lat": 34.15190777588534,
        "lng": -84.38601779915585
    },
    {
        "title": "Onsite",
        "label": "Triple B & S Farms",
        "lat": 33.93559766184062,
        "lng": -84.36204138667804
    },
    {
        "title": "Onsite",
        "label": "Maxham Farms",
        "lat": 33.9054555512373,
        "lng": -84.42781004913182
    },
    {
        "title": "Onsite",
        "label": "Ashley Family Farm LLC",
        "lat": 33.955885566486856,
        "lng": -84.28750465760801
    },
    {
        "title": "Onsite",
        "label": "Gee Farm",
        "lat": 33.899398622887745,
        "lng": -84.60661716844461
    },
    {
        "title": "Conyers: Green",
        "label": "Conyers",
        "icon": "../images/markers/darkgreen_MarkerG.png",
        "lat": 33.6641343246125,
        "lng": -84.01098553574963
    },
    {
        "title": "Grove Park: Green",
        "label": "Grove Park",
        "icon": "../images/markers/darkgreen_MarkerG.png",
        "lat": 33.77508821052101,
        "lng": -84.44624764306121
    },
    {
        "title": "Lithia Springs: Green",
        "label": "Lithia Springs",
        "icon": "../images/markers/darkgreen_MarkerG.png",
        "lat": 33.79407550249054,
        "lng": -84.66076731170193
    }
]